[{"Id_city": 1850144, "city_name": "Tokyo", "latitude": 35.6895, "longtitude": 139.6917, "country": "JP", "timezone": 32400, "Id_weather": 501, "weather_description": "moderate rain", "weather_type": "Rain", "weather_icon": "10d", "date": 1650781429, "sunset": 1650792052, "sunrise": 1650743863, "feels_like": 290.68, "humidity": 80, "pressure": 1013, "temp": 290.77, "temp_max": 291.36, "temp_min": 289.63, "visibility": 10000, "wind_speed": 1.03, "wind_direction": 0}, {"Id_city": 1273294, "city_name": "Delhi", "latitude": 28.6667, "longtitude": 77.2167, "country": "IN", "timezone": 19800, "Id_weather": 761, "weather_description": "dust", "weather_type": "Dust", "weather_icon": "50d", "date": 1650781384, "sunset": 1650806494, "sunrise": 1650759406, "feels_like": 305.94, "humidity": 17, "pressure": 1008, "temp": 308.2, "temp_max": 308.2, "temp_min": 308.2, "visibility": 2800, "wind_speed": 4.12, "wind_direction": 270}, {"Id_city": 1796236, "city_name": "Shanghai", "latitude": 31.2222, "longtitude": 121.4581, "country": "CN", "timezone": 28800, "Id_weather": 803, "weather_description": "broken clouds", "weather_type": "Clouds", "weather_icon": "04d", "date": 1650781683, "sunset": 1650796064, "sunrise": 1650748602, "feels_like": 295.7, "humidity": 70, "pressure": 1005, "temp": 295.57, "temp_max": 296.44, "temp_min": 293.08, "visibility": 10000, "wind_speed": 5, "wind_direction": 100}, {"Id_city": 3530597, "city_name": "Mexico City", "latitude": 19.4285, "longtitude": -99.1277, "country": "MX", "timezone": -18000, "Id_weather": 800, "weather_description": "clear sky", "weather_type": "Clear", "weather_icon": "01n", "date": 1650781606, "sunset": 1650848200, "sunrise": 1650802334, "feels_like": 291.53, "humidity": 43, "pressure": 1018, "temp": 292.42, "temp_max": 293.21, "temp_min": 285.4, "visibility": 10000, "wind_speed": 0, "wind_direction": 0}, {"Id_city": 360630, "city_name": "Cairo", "latitude": 30.0626, "longtitude": 31.2497, "country": "EG", "timezone": 7200, "Id_weather": 800, "weather_description": "clear sky", "weather_type": "Clear", "weather_icon": "01d", "date": 1650781751, "sunset": 1650817635, "sunrise": 1650770326, "feels_like": 292.5, "humidity": 72, "pressure": 995, "temp": 292.62, "temp_max": 292.62, "temp_min": 292.27, "visibility": 6000, "wind_speed": 2.06, "wind_direction": 350}, {"Id_city": 1275339, "city_name": "Mumbai", "latitude": 19.0144, "longtitude": 72.8479, "country": "IN", "timezone": 19800, "Id_weather": 721, "weather_description": "haze", "weather_type": "Haze", "weather_icon": "50d", "date": 1650781166, "sunset": 1650806891, "sunrise": 1650761105, "feels_like": 311.94, "humidity": 58, "pressure": 1011, "temp": 306.14, "temp_max": 306.14, "temp_min": 305.09, "visibility": 3500, "wind_speed": 4.12, "wind_direction": 210}, {"Id_city": 1816670, "city_name": "Beijing", "latitude": 39.9075, "longtitude": 116.3972, "country": "CN", "timezone": 28800, "Id_weather": 803, "weather_description": "broken clouds", "weather_type": "Clouds", "weather_icon": "04d", "date": 1650781405, "sunset": 1650798035, "sunrise": 1650749060, "feels_like": 298.24, "humidity": 19, "pressure": 1004, "temp": 299.09, "temp_max": 299.09, "temp_min": 299.09, "visibility": 10000, "wind_speed": 4.19, "wind_direction": 148}, {"Id_city": 1185241, "city_name": "Dhaka", "latitude": 23.7104, "longtitude": 90.4074, "country": "BD", "timezone": 21600, "Id_weather": 721, "weather_description": "haze", "weather_type": "Haze", "weather_icon": "50d", "date": 1650781116, "sunset": 1650802979, "sunrise": 1650756589, "feels_like": 313.14, "humidity": 62, "pressure": 1005, "temp": 306.14, "temp_max": 306.14, "temp_min": 306.14, "visibility": 4000, "wind_speed": 5.14, "wind_direction": 170}, {"Id_city": 1853909, "city_name": "Osaka", "latitude": 34.6937, "longtitude": 135.5022, "country": "JP", "timezone": 32400, "Id_weather": 803, "weather_description": "broken clouds", "weather_type": "Clouds", "weather_icon": "04d", "date": 1650781812, "sunset": 1650792973, "sunrise": 1650744953, "feels_like": 292.3, "humidity": 77, "pressure": 1009, "temp": 292.32, "temp_max": 293.11, "temp_min": 290.67, "visibility": 10000, "wind_speed": 3.6, "wind_direction": 40}, {"Id_city": 5128581, "city_name": "New York", "latitude": 40.7143, "longtitude": -74.006, "country": "US", "timezone": -14400, "Id_weather": 803, "weather_description": "broken clouds", "weather_type": "Clouds", "weather_icon": "04n", "date": 1650781660, "sunset": 1650843846, "sunrise": 1650794632, "feels_like": 283.63, "humidity": 71, "pressure": 1024, "temp": 284.58, "temp_max": 285.91, "temp_min": 282.85, "visibility": 10000, "wind_speed": 2.57, "wind_direction": 140}, {"Id_city": 1174872, "city_name": "Karachi", "latitude": 24.9056, "longtitude": 67.0822, "country": "PK", "timezone": 18000, "Id_weather": 721, "weather_description": "haze", "weather_type": "Haze", "weather_icon": "50d", "date": 1650781805, "sunset": 1650808660, "sunrise": 1650762103, "feels_like": 308.57, "humidity": 34, "pressure": 1010, "temp": 308.05, "temp_max": 308.05, "temp_min": 308.05, "visibility": 5000, "wind_speed": 5.14, "wind_direction": 270}, {"Id_city": 3435910, "city_name": "Buenos Aires", "latitude": -34.6132, "longtitude": -58.3772, "country": "AR", "timezone": -10800, "Id_weather": 800, "weather_description": "clear sky", "weather_type": "Clear", "weather_icon": "01n", "date": 1650781584, "sunset": 1650835157, "sunrise": 1650795820, "feels_like": 287.13, "humidity": 78, "pressure": 1008, "temp": 287.59, "temp_max": 289.26, "temp_min": 285.92, "visibility": 10000, "wind_speed": 5.14, "wind_direction": 330}, {"Id_city": 1814906, "city_name": "Chongqing", "latitude": 29.5628, "longtitude": 106.5528, "country": "CN", "timezone": 28800, "Id_weather": 804, "weather_description": "overcast clouds", "weather_type": "Clouds", "weather_icon": "04d", "date": 1650781720, "sunset": 1650799516, "sunrise": 1650752303, "feels_like": 299.63, "humidity": 75, "pressure": 970, "temp": 299.03, "temp_max": 300.98, "temp_min": 297.33, "visibility": 10000, "wind_speed": 7, "wind_direction": 310}, {"Id_city": 745042, "city_name": "Istanbul", "latitude": 41.0351, "longtitude": 28.9833, "country": "TR", "timezone": 10800, "Id_weather": 800, "weather_description": "clear sky", "weather_type": "Clear", "weather_icon": "01d", "date": 1650781831, "sunset": 1650819143, "sunrise": 1650769906, "feels_like": 289.64, "humidity": 72, "pressure": 1012, "temp": 290.02, "temp_max": 291.24, "temp_min": 288.19, "visibility": 10000, "wind_speed": 1.03, "wind_direction": 240}, {"Id_city": 1275004, "city_name": "Kolkata", "latitude": 22.5697, "longtitude": 88.3697, "country": "IN", "timezone": 19800, "Id_weather": 721, "weather_description": "haze", "weather_type": "Haze", "weather_icon": "50d", "date": 1650781544, "sunset": 1650803392, "sunrise": 1650757154, "feels_like": 318.12, "humidity": 44, "pressure": 1004, "temp": 311.12, "temp_max": 311.12, "temp_min": 311.12, "visibility": 4000, "wind_speed": 2.57, "wind_direction": 240}, {"Id_city": 1701668, "city_name": "Manila", "latitude": 14.6042, "longtitude": 120.9822, "country": "PH", "timezone": 28800, "Id_weather": 801, "weather_description": "few clouds", "weather_type": "Clouds", "weather_icon": "02d", "date": 1650781604, "sunset": 1650795069, "sunrise": 1650749825, "feels_like": 314, "humidity": 58, "pressure": 1006, "temp": 307, "temp_max": 307.15, "temp_min": 305.4, "visibility": 10000, "wind_speed": 5.14, "wind_direction": 130}, {"Id_city": 2332453, "city_name": "Lagos", "latitude": 6.5833, "longtitude": 3.75, "country": "NG", "timezone": 3600, "Id_weather": 804, "weather_description": "overcast clouds", "weather_type": "Clouds", "weather_icon": "04d", "date": 1650781722, "sunset": 1650822747, "sunrise": 1650778412, "feels_like": 299.41, "humidity": 89, "pressure": 1008, "temp": 299.41, "temp_max": 299.41, "temp_min": 299.41, "visibility": 10000, "wind_speed": 1.08, "wind_direction": 197}, {"Id_city": 3451190, "city_name": "Rio de Janeiro", "latitude": -22.9028, "longtitude": -43.2075, "country": "BR", "timezone": -10800, "Id_weather": 800, "weather_description": "clear sky", "weather_type": "Clear", "weather_icon": "01n", "date": 1650781832, "sunset": 1650832340, "sunrise": 1650791356, "feels_like": 297.64, "humidity": 78, "pressure": 1014, "temp": 297.15, "temp_max": 297.15, "temp_min": 297.15, "visibility": 10000, "wind_speed": 2.06, "wind_direction": 270}, {"Id_city": 1792947, "city_name": "Tianjin", "latitude": 39.1422, "longtitude": 117.1767, "country": "CN", "timezone": 28800, "Id_weather": 801, "weather_description": "few clouds", "weather_type": "Clouds", "weather_icon": "02d", "date": 1650781648, "sunset": 1650797774, "sunrise": 1650748947, "feels_like": 293.4, "humidity": 43, "pressure": 1006, "temp": 294.12, "temp_max": 294.12, "temp_min": 294.12, "visibility": 10000, "wind_speed": 7, "wind_direction": 100}, {"Id_city": 2314302, "city_name": "Kinshasa", "latitude": -4.3246, "longtitude": 15.3215, "country": "CD", "timezone": 3600, "Id_weather": 803, "weather_description": "broken clouds", "weather_type": "Clouds", "weather_icon": "04d", "date": 1650781500, "sunset": 1650819371, "sunrise": 1650776235, "feels_like": 297.19, "humidity": 94, "pressure": 1012, "temp": 296.36, "temp_max": 296.36, "temp_min": 296.33, "visibility": 10000, "wind_speed": 1.54, "wind_direction": 0}, {"Id_city": 1809858, "city_name": "Guangzhou", "latitude": 23.1167, "longtitude": 113.25, "country": "CN", "timezone": 28800, "Id_weather": 803, "weather_description": "broken clouds", "weather_type": "Clouds", "weather_icon": "04d", "date": 1650781433, "sunset": 1650797455, "sunrise": 1650751150, "feels_like": 306.33, "humidity": 53, "pressure": 1006, "temp": 304.12, "temp_max": 304.12, "temp_min": 304.12, "visibility": 8610, "wind_speed": 3.99, "wind_direction": 170}, {"Id_city": 5368361, "city_name": "Los Angeles", "latitude": 34.0522, "longtitude": -118.2437, "country": "US", "timezone": -25200, "Id_weather": 800, "weather_description": "clear sky", "weather_type": "Clear", "weather_icon": "01n", "date": 1650781593, "sunset": 1650767404, "sunrise": 1650719526, "feels_like": 289.84, "humidity": 50, "pressure": 1015, "temp": 290.72, "temp_max": 294.1, "temp_min": 287.15, "visibility": 10000, "wind_speed": 3.6, "wind_direction": 290}, {"Id_city": 524901, "city_name": "Moscow", "latitude": 55.7522, "longtitude": 37.6156, "country": "RU", "timezone": 10800, "Id_weather": 804, "weather_description": "overcast clouds", "weather_type": "Clouds", "weather_icon": "04d", "date": 1650781098, "sunset": 1650819123, "sunrise": 1650765782, "feels_like": 280.9, "humidity": 67, "pressure": 1013, "temp": 282.85, "temp_max": 283.5, "temp_min": 281.18, "visibility": 10000, "wind_speed": 3.75, "wind_direction": 128}, {"Id_city": 1795565, "city_name": "Shenzhen", "latitude": 22.5455, "longtitude": 114.0683, "country": "CN", "timezone": 28800, "Id_weather": 802, "weather_description": "scattered clouds", "weather_type": "Clouds", "weather_icon": "03d", "date": 1650781561, "sunset": 1650797221, "sunrise": 1650750991, "feels_like": 308.8, "humidity": 91, "pressure": 995, "temp": 301.8, "temp_max": 304.18, "temp_min": 299.73, "visibility": 10000, "wind_speed": 4.69, "wind_direction": 184}, {"Id_city": 1172451, "city_name": "Lahore", "latitude": 31.5497, "longtitude": 74.3436, "country": "PK", "timezone": 18000, "Id_weather": 800, "weather_description": "clear sky", "weather_type": "Clear", "weather_icon": "01d", "date": 1650781244, "sunset": 1650807403, "sunrise": 1650759875, "feels_like": 305.2, "humidity": 21, "pressure": 1007, "temp": 307.14, "temp_max": 309.21, "temp_min": 307.14, "visibility": 6000, "wind_speed": 5.14, "wind_direction": 330}, {"Id_city": 1277333, "city_name": "Bengaluru", "latitude": 12.9762, "longtitude": 77.6033, "country": "IN", "timezone": 19800, "Id_weather": 802, "weather_description": "scattered clouds", "weather_type": "Clouds", "weather_icon": "03d", "date": 1650781759, "sunset": 1650805386, "sunrise": 1650760328, "feels_like": 305.86, "humidity": 46, "pressure": 945, "temp": 304.69, "temp_max": 306.05, "temp_min": 302.95, "visibility": 6000, "wind_speed": 2.06, "wind_direction": 320}, {"Id_city": 2988507, "city_name": "Paris", "latitude": 48.8534, "longtitude": 2.3488, "country": "FR", "timezone": 7200, "Id_weather": 800, "weather_description": "clear sky", "weather_type": "Clear", "weather_icon": "01d", "date": 1650781771, "sunset": 1650826469, "sunrise": 1650775363, "feels_like": 283.23, "humidity": 85, "pressure": 1000, "temp": 283.88, "temp_max": 285.02, "temp_min": 281.41, "visibility": 10000, "wind_speed": 2.57, "wind_direction": 330}, {"Id_city": 1642911, "city_name": "Jakarta", "latitude": -6.2146, "longtitude": 106.8451, "country": "ID", "timezone": 25200, "Id_weather": 804, "weather_description": "overcast clouds", "weather_type": "Clouds", "weather_icon": "04d", "date": 1650781391, "sunset": 1650797306, "sunrise": 1650754373, "feels_like": 314.07, "humidity": 56, "pressure": 1005, "temp": 307.29, "temp_max": 307.59, "temp_min": 304.76, "visibility": 10000, "wind_speed": 3.2, "wind_direction": 295}, {"Id_city": 1264527, "city_name": "Chennai", "latitude": 13.0878, "longtitude": 80.2785, "country": "IN", "timezone": 19800, "Id_weather": 801, "weather_description": "few clouds", "weather_type": "Clouds", "weather_icon": "02d", "date": 1650781538, "sunset": 1650804750, "sunrise": 1650759680, "feels_like": 312.35, "humidity": 73, "pressure": 1013, "temp": 305.35, "temp_max": 309.14, "temp_min": 305.35, "visibility": 8000, "wind_speed": 4.63, "wind_direction": 140}, {"Id_city": 3936456, "city_name": "Lima", "latitude": -12.0432, "longtitude": -77.0282, "country": "PE", "timezone": -18000, "Id_weather": 802, "weather_description": "scattered clouds", "weather_type": "Clouds", "weather_icon": "03n", "date": 1650781835, "sunset": 1650841100, "sunrise": 1650798828, "feels_like": 292.06, "humidity": 82, "pressure": 986, "temp": 291.98, "temp_max": 291.98, "temp_min": 289.29, "visibility": 10000, "wind_speed": 4.12, "wind_direction": 160}, {"Id_city": 1609350, "city_name": "Bangkok", "latitude": 13.75, "longtitude": 100.5167, "country": "TH", "timezone": 25200, "Id_weather": 500, "weather_description": "light rain", "weather_type": "Rain", "weather_icon": "10d", "date": 1650781835, "sunset": 1650799931, "sunrise": 1650754785, "feels_like": 315.99, "humidity": 100, "pressure": 1005, "temp": 308.99, "temp_max": 313.1, "temp_min": 304.09, "visibility": 10000, "wind_speed": 5.46, "wind_direction": 185}, {"Id_city": 1835848, "city_name": "Seoul", "latitude": 37.5683, "longtitude": 126.9778, "country": "KR", "timezone": 32400, "Id_weather": 800, "weather_description": "clear sky", "weather_type": "Clear", "weather_icon": "01d", "date": 1650781410, "sunset": 1650795272, "sunrise": 1650746744, "feels_like": 296.9, "humidity": 45, "pressure": 1010, "temp": 297.26, "temp_max": 299.81, "temp_min": 289.84, "visibility": 10000, "wind_speed": 4.63, "wind_direction": 270}, {"Id_city": 1856057, "city_name": "Nagoya", "latitude": 35.1815, "longtitude": 136.9064, "country": "JP", "timezone": 32400, "Id_weather": 500, "weather_description": "light rain", "weather_type": "Rain", "weather_icon": "10d", "date": 1650781363, "sunset": 1650792677, "sunrise": 1650744575, "feels_like": 291.12, "humidity": 84, "pressure": 903, "temp": 291.08, "temp_max": 291.49, "temp_min": 290.04, "visibility": 10000, "wind_speed": 1.19, "wind_direction": 11}, {"Id_city": 1269843, "city_name": "Hyderabad", "latitude": 17.3753, "longtitude": 78.4744, "country": "IN", "timezone": 19800, "Id_weather": 801, "weather_description": "few clouds", "weather_type": "Clouds", "weather_icon": "02d", "date": 1650781663, "sunset": 1650805439, "sunrise": 1650759857, "feels_like": 305.76, "humidity": 40, "pressure": 1014, "temp": 305.38, "temp_max": 306.88, "temp_min": 305.38, "visibility": 6000, "wind_speed": 7.2, "wind_direction": 300}, {"Id_city": 2643743, "city_name": "London", "latitude": 51.5085, "longtitude": -0.1257, "country": "GB", "timezone": 3600, "Id_weather": 804, "weather_description": "overcast clouds", "weather_type": "Clouds", "weather_icon": "04d", "date": 1650781282, "sunset": 1650827453, "sunrise": 1650775566, "feels_like": 281.7, "humidity": 85, "pressure": 1007, "temp": 282.22, "temp_max": 283.81, "temp_min": 280.75, "visibility": 10000, "wind_speed": 1.54, "wind_direction": 0}, {"Id_city": 112931, "city_name": "Tehran", "latitude": 35.6944, "longtitude": 51.4215, "country": "IR", "timezone": 16200, "Id_weather": 802, "weather_description": "scattered clouds", "weather_type": "Clouds", "weather_icon": "03d", "date": 1650781837, "sunset": 1650813250, "sunrise": 1650765030, "feels_like": 298.88, "humidity": 13, "pressure": 1016, "temp": 299.88, "temp_max": 300.14, "temp_min": 296.94, "visibility": 10000, "wind_speed": 5.14, "wind_direction": 110}, {"Id_city": 4887398, "city_name": "Chicago", "latitude": 41.85, "longtitude": -87.65, "country": "US", "timezone": -18000, "Id_weather": 804, "weather_description": "overcast clouds", "weather_type": "Clouds", "weather_icon": "04n", "date": 1650781760, "sunset": 1650847241, "sunrise": 1650797785, "feels_like": 295.14, "humidity": 56, "pressure": 1010, "temp": 295.4, "temp_max": 296.25, "temp_min": 293.49, "visibility": 10000, "wind_speed": 4.92, "wind_direction": 224}, {"Id_city": 1815286, "city_name": "Chengdu", "latitude": 30.6667, "longtitude": 104.0667, "country": "CN", "timezone": 28800, "Id_weather": 802, "weather_description": "scattered clouds", "weather_type": "Clouds", "weather_icon": "03d", "date": 1650781800, "sunset": 1650800197, "sunrise": 1650752816, "feels_like": 297.21, "humidity": 64, "pressure": 1004, "temp": 297.09, "temp_max": 297.09, "temp_min": 297.09, "visibility": 10000, "wind_speed": 5, "wind_direction": 80}, {"Id_city": 1799962, "city_name": "Nanjing", "latitude": 32.0617, "longtitude": 118.7778, "country": "CN", "timezone": 28800, "Id_weather": 802, "weather_description": "scattered clouds", "weather_type": "Clouds", "weather_icon": "03d", "date": 1650781566, "sunset": 1650796773, "sunrise": 1650749179, "feels_like": 301.54, "humidity": 50, "pressure": 1007, "temp": 301.1, "temp_max": 301.1, "temp_min": 301.1, "visibility": 10000, "wind_speed": 3.65, "wind_direction": 165}, {"Id_city": 1791247, "city_name": "Wuhan", "latitude": 30.5833, "longtitude": 114.2667, "country": "CN", "timezone": 28800, "Id_weather": 802, "weather_description": "scattered clouds", "weather_type": "Clouds", "weather_icon": "03d", "date": 1650781562, "sunset": 1650797742, "sunrise": 1650750376, "feels_like": 302.37, "humidity": 60, "pressure": 1004, "temp": 300.99, "temp_max": 303.2, "temp_min": 300.99, "visibility": 10000, "wind_speed": 3, "wind_direction": 144}, {"Id_city": 1566083, "city_name": "Ho Chi Minh City", "latitude": 10.75, "longtitude": 106.6667, "country": "VN", "timezone": 25200, "Id_weather": 803, "weather_description": "broken clouds", "weather_type": "Clouds", "weather_icon": "04d", "date": 1650781652, "sunset": 1650798281, "sunrise": 1650753483, "feels_like": 312.35, "humidity": 46, "pressure": 1007, "temp": 308.16, "temp_max": 308.16, "temp_min": 308.16, "visibility": 10000, "wind_speed": 1.54, "wind_direction": 140}, {"Id_city": 2240449, "city_name": "Luanda", "latitude": -8.8368, "longtitude": 13.2343, "country": "AO", "timezone": 3600, "Id_weather": 802, "weather_description": "scattered clouds", "weather_type": "Clouds", "weather_icon": "03d", "date": 1650781838, "sunset": 1650819623, "sunrise": 1650776984, "feels_like": 299, "humidity": 88, "pressure": 1009, "temp": 298.15, "temp_max": 298.15, "temp_min": 298.15, "visibility": 9000, "wind_speed": 2.57, "wind_direction": 130}, {"Id_city": 1279233, "city_name": "Ahmedabad", "latitude": 23.0333, "longtitude": 72.6167, "country": "IN", "timezone": 19800, "Id_weather": 800, "weather_description": "clear sky", "weather_type": "Clear", "weather_icon": "01d", "date": 1650781586, "sunset": 1650807205, "sunrise": 1650760902, "feels_like": 309.62, "humidity": 19, "pressure": 1009, "temp": 311.17, "temp_max": 311.17, "temp_min": 311.17, "visibility": 6000, "wind_speed": 3.09, "wind_direction": 360}, {"Id_city": 1733046, "city_name": "Kuala Lumpur", "latitude": 3.1431, "longtitude": 101.6865, "country": "MY", "timezone": 28800, "Id_weather": 802, "weather_description": "scattered clouds", "weather_type": "Clouds", "weather_icon": "03d", "date": 1650781838, "sunset": 1650799053, "sunrise": 1650755102, "feels_like": 312.72, "humidity": 55, "pressure": 1007, "temp": 306.9, "temp_max": 306.9, "temp_min": 305.67, "visibility": 10000, "wind_speed": 3.6, "wind_direction": 280}, {"Id_city": 1819729, "city_name": "Hong Kong", "latitude": 22.2855, "longtitude": 114.1577, "country": "HK", "timezone": 28800, "Id_weather": 801, "weather_description": "few clouds", "weather_type": "Clouds", "weather_icon": "02d", "date": 1650781703, "sunset": 1650797183, "sunrise": 1650750987, "feels_like": 307.8, "humidity": 77, "pressure": 1008, "temp": 302.36, "temp_max": 304.24, "temp_min": 299.79, "visibility": 10000, "wind_speed": 4.92, "wind_direction": 160}, {"Id_city": 1812545, "city_name": "Dongguan", "latitude": 23.0489, "longtitude": 113.7447, "country": "CN", "timezone": 28800, "Id_weather": 802, "weather_description": "scattered clouds", "weather_type": "Clouds", "weather_icon": "03d", "date": 1650781608, "sunset": 1650797332, "sunrise": 1650751036, "feels_like": 302.63, "humidity": 49, "pressure": 1007, "temp": 302.1, "temp_max": 302.1, "temp_min": 302.1, "visibility": 10000, "wind_speed": 5.7, "wind_direction": 186}, {"Id_city": 1808926, "city_name": "Hangzhou", "latitude": 30.2937, "longtitude": 120.1614, "country": "CN", "timezone": 28800, "Id_weather": 802, "weather_description": "scattered clouds", "weather_type": "Clouds", "weather_icon": "03d", "date": 1650780997, "sunset": 1650796304, "sunrise": 1650748984, "feels_like": 302.5, "humidity": 63, "pressure": 1008, "temp": 300.87, "temp_max": 300.87, "temp_min": 298.1, "visibility": 10000, "wind_speed": 2.95, "wind_direction": 77}, {"Id_city": 1811103, "city_name": "Foshan", "latitude": 23.0268, "longtitude": 113.1315, "country": "CN", "timezone": 28800, "Id_weather": 803, "weather_description": "broken clouds", "weather_type": "Clouds", "weather_icon": "04d", "date": 1650781700, "sunset": 1650797478, "sunrise": 1650751184, "feels_like": 306, "humidity": 51, "pressure": 1006, "temp": 304.17, "temp_max": 304.17, "temp_min": 304.17, "visibility": 10000, "wind_speed": 4.27, "wind_direction": 193}, {"Id_city": 2034937, "city_name": "Shenyang", "latitude": 41.7922, "longtitude": 123.4328, "country": "CN", "timezone": 28800, "Id_weather": 802, "weather_description": "scattered clouds", "weather_type": "Clouds", "weather_icon": "03d", "date": 1650781770, "sunset": 1650796536, "sunrise": 1650747182, "feels_like": 294.02, "humidity": 23, "pressure": 1007, "temp": 295.16, "temp_max": 295.16, "temp_min": 295.16, "visibility": 10000, "wind_speed": 4, "wind_direction": 40}, {"Id_city": 108410, "city_name": "Riyadh", "latitude": 24.6877, "longtitude": 46.7219, "country": "SA", "timezone": 10800, "Id_weather": 803, "weather_description": "broken clouds", "weather_type": "Clouds", "weather_icon": "04d", "date": 1650781839, "sunset": 1650813533, "sunrise": 1650767002, "feels_like": 301.35, "humidity": 15, "pressure": 1010, "temp": 303.23, "temp_max": 303.23, "temp_min": 303.23, "visibility": 10000, "wind_speed": 6.8, "wind_direction": 135}, {"Id_city": 98182, "city_name": "Baghdad", "latitude": 33.3406, "longtitude": 44.4009, "country": "IQ", "timezone": 10800, "Id_weather": 761, "weather_description": "dust", "weather_type": "Dust", "weather_icon": "50d", "date": 1650781840, "sunset": 1650814736, "sunrise": 1650766913, "feels_like": 299.1, "humidity": 27, "pressure": 1012, "temp": 299.1, "temp_max": 299.1, "temp_min": 299.1, "visibility": 3000, "wind_speed": 6.17, "wind_direction": 150}, {"Id_city": 3871336, "city_name": "Santiago", "latitude": -33.4569, "longtitude": -70.6483, "country": "CL", "timezone": -14400, "Id_weather": 800, "weather_description": "clear sky", "weather_type": "Clear", "weather_icon": "01n", "date": 1650781689, "sunset": 1650838189, "sunrise": 1650798676, "feels_like": 286.16, "humidity": 67, "pressure": 1014, "temp": 286.97, "temp_max": 288.62, "temp_min": 284.68, "visibility": 10000, "wind_speed": 0.51, "wind_direction": 0}, {"Id_city": 1255364, "city_name": "Surat", "latitude": 21.1667, "longtitude": 72.8333, "country": "IN", "timezone": 19800, "Id_weather": 802, "weather_description": "scattered clouds", "weather_type": "Clouds", "weather_icon": "03d", "date": 1650781202, "sunset": 1650807031, "sunrise": 1650760972, "feels_like": 307.99, "humidity": 24, "pressure": 1010, "temp": 309.14, "temp_max": 309.14, "temp_min": 309.14, "visibility": 6000, "wind_speed": 0, "wind_direction": 0}, {"Id_city": 3117735, "city_name": "Madrid", "latitude": 40.4165, "longtitude": -3.7026, "country": "ES", "timezone": 7200, "Id_weather": 800, "weather_description": "clear sky", "weather_type": "Clear", "weather_icon": "01d", "date": 1650781840, "sunset": 1650826930, "sunrise": 1650777805, "feels_like": 276.29, "humidity": 86, "pressure": 1012, "temp": 278.73, "temp_max": 281.73, "temp_min": 276.28, "visibility": 10000, "wind_speed": 3.09, "wind_direction": 250}, {"Id_city": 1886760, "city_name": "Suzhou", "latitude": 31.3114, "longtitude": 120.6181, "country": "CN", "timezone": 28800, "Id_weather": 800, "weather_description": "clear sky", "weather_type": "Clear", "weather_icon": "01d", "date": 1650781698, "sunset": 1650796273, "sunrise": 1650748796, "feels_like": 298.84, "humidity": 56, "pressure": 1009, "temp": 298.76, "temp_max": 298.76, "temp_min": 298.76, "visibility": 10000, "wind_speed": 3.34, "wind_direction": 154}, {"Id_city": 1259229, "city_name": "Pune", "latitude": 18.5196, "longtitude": 73.8553, "country": "IN", "timezone": 19800, "Id_weather": 804, "weather_description": "overcast clouds", "weather_type": "Clouds", "weather_icon": "04d", "date": 1650781782, "sunset": 1650806618, "sunrise": 1650760894, "feels_like": 304.31, "humidity": 25, "pressure": 1012, "temp": 305.95, "temp_max": 305.95, "temp_min": 305.95, "visibility": 10000, "wind_speed": 3.51, "wind_direction": 345}, {"Id_city": 2037013, "city_name": "Harbin", "latitude": 45.75, "longtitude": 126.65, "country": "CN", "timezone": 28800, "Id_weather": 802, "weather_description": "scattered clouds", "weather_type": "Clouds", "weather_icon": "03d", "date": 1650781842, "sunset": 1650796207, "sunrise": 1650745967, "feels_like": 285.09, "humidity": 20, "pressure": 1008, "temp": 287.12, "temp_max": 287.12, "temp_min": 287.12, "visibility": 10000, "wind_speed": 4.47, "wind_direction": 272}, {"Id_city": 4699066, "city_name": "Houston", "latitude": 29.7633, "longtitude": -95.3633, "country": "US", "timezone": -18000, "Id_weather": 701, "weather_description": "mist", "weather_type": "Mist", "weather_icon": "50n", "date": 1650781758, "sunset": 1650848013, "sunrise": 1650800715, "feels_like": 295.87, "humidity": 83, "pressure": 1012, "temp": 295.42, "temp_max": 296.45, "temp_min": 294.2, "visibility": 4828, "wind_speed": 5.66, "wind_direction": 140}, {"Id_city": 4684904, "city_name": "Dallas", "latitude": 32.7668, "longtitude": -96.7836, "country": "US", "timezone": -18000, "Id_weather": 801, "weather_description": "few clouds", "weather_type": "Clouds", "weather_icon": "02n", "date": 1650781373, "sunset": 1650848591, "sunrise": 1650800818, "feels_like": 296.1, "humidity": 74, "pressure": 1010, "temp": 295.84, "temp_max": 296.78, "temp_min": 294.91, "visibility": 10000, "wind_speed": 8.23, "wind_direction": 180}, {"Id_city": 6167865, "city_name": "Toronto", "latitude": 43.7001, "longtitude": -79.4163, "country": "CA", "timezone": -14400, "Id_weather": 804, "weather_description": "overcast clouds", "weather_type": "Clouds", "weather_icon": "04n", "date": 1650781842, "sunset": 1650845467, "sunrise": 1650795608, "feels_like": 275.13, "humidity": 73, "pressure": 1018, "temp": 280.42, "temp_max": 281.2, "temp_min": 279.31, "visibility": 10000, "wind_speed": 12.86, "wind_direction": 60}, {"Id_city": 160263, "city_name": "Dar es Salaam", "latitude": -6.8235, "longtitude": 39.2695, "country": "TZ", "timezone": 10800, "Id_weather": 500, "weather_description": "light rain", "weather_type": "Rain", "weather_icon": "10d", "date": 1650781580, "sunset": 1650813487, "sunrise": 1650770624, "feels_like": 303.71, "humidity": 83, "pressure": 1012, "temp": 300.37, "temp_max": 300.37, "temp_min": 300.37, "visibility": 10000, "wind_speed": 0.38, "wind_direction": 251}, {"Id_city": 4164138, "city_name": "Miami", "latitude": 25.7743, "longtitude": -80.1937, "country": "US", "timezone": -14400, "Id_weather": 803, "weather_description": "broken clouds", "weather_type": "Clouds", "weather_icon": "04n", "date": 1650781843, "sunset": 1650844079, "sunrise": 1650797369, "feels_like": 297.26, "humidity": 71, "pressure": 1018, "temp": 296.97, "temp_max": 297.6, "temp_min": 295.93, "visibility": 10000, "wind_speed": 6.71, "wind_direction": 80}, {"Id_city": 3470127, "city_name": "Belo Horizonte", "latitude": -19.9208, "longtitude": -43.9378, "country": "BR", "timezone": -10800, "Id_weather": 800, "weather_description": "clear sky", "weather_type": "Clear", "weather_icon": "01n", "date": 1650781843, "sunset": 1650832700, "sunrise": 1650791347, "feels_like": 290.53, "humidity": 82, "pressure": 1017, "temp": 290.59, "temp_max": 290.9, "temp_min": 290.59, "visibility": 10000, "wind_speed": 0, "wind_direction": 0}, {"Id_city": 1880252, "city_name": "Singapore", "latitude": 1.2897, "longtitude": 103.8501, "country": "SG", "timezone": 28800, "Id_weather": 501, "weather_description": "moderate rain", "weather_type": "Rain", "weather_icon": "10d", "date": 1650781605, "sunset": 1650798433, "sunrise": 1650754684, "feels_like": 308.78, "humidity": 61, "pressure": 1007, "temp": 304.39, "temp_max": 306.23, "temp_min": 303.1, "visibility": 10000, "wind_speed": 4.63, "wind_direction": 90}, {"Id_city": 4560349, "city_name": "Philadelphia", "latitude": 39.9523, "longtitude": -75.1638, "country": "US", "timezone": -14400, "Id_weather": 803, "weather_description": "broken clouds", "weather_type": "Clouds", "weather_icon": "04n", "date": 1650781552, "sunset": 1650844047, "sunrise": 1650794986, "feels_like": 283.46, "humidity": 63, "pressure": 1022, "temp": 284.61, "temp_max": 285.87, "temp_min": 282.62, "visibility": 10000, "wind_speed": 2.06, "wind_direction": 90}, {"Id_city": 4180439, "city_name": "Atlanta", "latitude": 33.749, "longtitude": -84.388, "country": "US", "timezone": -14400, "Id_weather": 803, "weather_description": "broken clouds", "weather_type": "Clouds", "weather_icon": "04n", "date": 1650781704, "sunset": 1650845696, "sunrise": 1650797764, "feels_like": 291.12, "humidity": 72, "pressure": 1023, "temp": 291.36, "temp_max": 292.75, "temp_min": 288.7, "visibility": 10000, "wind_speed": 4.12, "wind_direction": 150}, {"Id_city": 1863967, "city_name": "Fukuoka", "latitude": 33.6064, "longtitude": 130.4181, "country": "JP", "timezone": 32400, "Id_weather": 803, "weather_description": "broken clouds", "weather_type": "Clouds", "weather_icon": "04d", "date": 1650781643, "sunset": 1650794103, "sunrise": 1650746263, "feels_like": 298.14, "humidity": 57, "pressure": 1009, "temp": 298.1, "temp_max": 298.82, "temp_min": 298.1, "visibility": 10000, "wind_speed": 4.12, "wind_direction": 100}, {"Id_city": 379252, "city_name": "Khartoum", "latitude": 15.5518, "longtitude": 32.5324, "country": "SD", "timezone": 7200, "Id_weather": 800, "weather_description": "clear sky", "weather_type": "Clear", "weather_icon": "01d", "date": 1650781642, "sunset": 1650816356, "sunrise": 1650770989, "feels_like": 304.1, "humidity": 6, "pressure": 1010, "temp": 306.49, "temp_max": 306.49, "temp_min": 306.49, "visibility": 10000, "wind_speed": 0.89, "wind_direction": 314}, {"Id_city": 3128760, "city_name": "Barcelona", "latitude": 41.3888, "longtitude": 2.159, "country": "ES", "timezone": 7200, "Id_weather": 801, "weather_description": "few clouds", "weather_type": "Clouds", "weather_icon": "02d", "date": 1650781614, "sunset": 1650825622, "sunrise": 1650776301, "feels_like": 285.12, "humidity": 71, "pressure": 1005, "temp": 285.93, "temp_max": 287.34, "temp_min": 284.57, "visibility": 10000, "wind_speed": 4.63, "wind_direction": 260}, {"Id_city": 993800, "city_name": "Johannesburg", "latitude": -26.2023, "longtitude": 28.0436, "country": "ZA", "timezone": 7200, "Id_weather": 800, "weather_description": "clear sky", "weather_type": "Clear", "weather_icon": "01d", "date": 1650781845, "sunset": 1650815035, "sunrise": 1650774464, "feels_like": 286.87, "humidity": 94, "pressure": 1012, "temp": 286.98, "temp_max": 287.07, "temp_min": 285.57, "visibility": 10000, "wind_speed": 0.45, "wind_direction": 244}, {"Id_city": 498817, "city_name": "Saint Petersburg", "latitude": 59.8944, "longtitude": 30.2642, "country": "RU", "timezone": 10800, "Id_weather": 801, "weather_description": "few clouds", "weather_type": "Clouds", "weather_icon": "02d", "date": 1650781836, "sunset": 1650821808, "sunrise": 1650766625, "feels_like": 274.52, "humidity": 79, "pressure": 1012, "temp": 278.18, "temp_max": 278.24, "temp_min": 278.18, "visibility": 10000, "wind_speed": 5, "wind_direction": 60}, {"Id_city": 1797929, "city_name": "Qingdao", "latitude": 36.0986, "longtitude": 120.3719, "country": "CN", "timezone": 28800, "Id_weather": 804, "weather_description": "overcast clouds", "weather_type": "Clouds", "weather_icon": "04d", "date": 1650781810, "sunset": 1650796727, "sunrise": 1650748460, "feels_like": 295.93, "humidity": 64, "pressure": 1006, "temp": 295.93, "temp_max": 295.93, "temp_min": 295.93, "visibility": 6000, "wind_speed": 7, "wind_direction": 140}, {"Id_city": 1814087, "city_name": "Dalian", "latitude": 38.9122, "longtitude": 121.6022, "country": "CN", "timezone": 28800, "Id_weather": 500, "weather_description": "light rain", "weather_type": "Rain", "weather_icon": "10d", "date": 1650781845, "sunset": 1650796689, "sunrise": 1650747908, "feels_like": 285.45, "humidity": 76, "pressure": 1008, "temp": 286.11, "temp_max": 286.27, "temp_min": 286.11, "visibility": 6000, "wind_speed": 6, "wind_direction": 90}, {"Id_city": 1298824, "city_name": "Yangon", "latitude": 16.8053, "longtitude": 96.1561, "country": "MM", "timezone": 23400, "Id_weather": 802, "weather_description": "scattered clouds", "weather_type": "Clouds", "weather_icon": "03d", "date": 1650781590, "sunset": 1650801160, "sunrise": 1650755649, "feels_like": 316.13, "humidity": 52, "pressure": 1006, "temp": 309.13, "temp_max": 309.13, "temp_min": 309.13, "visibility": 7000, "wind_speed": 3.09, "wind_direction": 230}, {"Id_city": 361058, "city_name": "Alexandria", "latitude": 31.2156, "longtitude": 29.9553, "country": "EG", "timezone": 7200, "Id_weather": 800, "weather_description": "clear sky", "weather_type": "Clear", "weather_icon": "01d", "date": 1650781846, "sunset": 1650818035, "sunrise": 1650770547, "feels_like": 292.96, "humidity": 68, "pressure": 1009, "temp": 293.13, "temp_max": 293.13, "temp_min": 291.45, "visibility": 10000, "wind_speed": 3.6, "wind_direction": 330}, {"Id_city": 1805753, "city_name": "Jinan", "latitude": 36.6683, "longtitude": 116.9972, "country": "CN", "timezone": 28800, "Id_weather": 804, "weather_description": "overcast clouds", "weather_type": "Clouds", "weather_icon": "04d", "date": 1650781846, "sunset": 1650797588, "sunrise": 1650749219, "feels_like": 302.08, "humidity": 34, "pressure": 1004, "temp": 303, "temp_max": 303, "temp_min": 303, "visibility": 10000, "wind_speed": 5.54, "wind_direction": 212}, {"Id_city": 4005539, "city_name": "Guadalajara", "latitude": 20.6667, "longtitude": -103.3333, "country": "MX", "timezone": -18000, "Id_weather": 800, "weather_description": "clear sky", "weather_type": "Clear", "weather_icon": "01n", "date": 1650781847, "sunset": 1650849289, "sunrise": 1650803264, "feels_like": 292.89, "humidity": 28, "pressure": 1018, "temp": 294.02, "temp_max": 294.02, "temp_min": 294.02, "visibility": 10000, "wind_speed": 4.12, "wind_direction": 290}]